[{"id":2,"name":"Albania","code":"AL","serverCount":1,"cities":[{"id":308615,"name":"Tirana","latitude":41.3275,"longitude":19.8188889,"dns_name":"tirana","hub_score":0,"serverCount":1}]},{"id":10,"name":"Argentina","code":"AR","serverCount":1,"cities":[{"id":384866,"name":"Buenos Aires","latitude":-34.5875,"longitude":-58.6725,"dns_name":"buenos-aires","hub_score":0,"serverCount":1}]},{"id":13,"name":"Australia","code":"AU","serverCount":5,"cities":[{"id":452717,"name":"Adelaide","latitude":-34.928661,"longitude":138.598633,"dns_name":"adelaide","hub_score":0,"serverCount":1},{"id":456494,"name":"Brisbane","latitude":-27.47101,"longitude":153.024292,"dns_name":"brisbane","hub_score":0,"serverCount":1},{"id":470813,"name":"Melbourne","latitude":-37.813938,"longitude":144.963425,"dns_name":"melbourne","hub_score":0,"serverCount":1},{"id":475799,"name":"Perth","latitude":-31.95224,"longitude":115.861397,"dns_name":"perth","hub_score":0,"serverCount":1},{"id":479570,"name":"Sydney","latitude":-33.861481,"longitude":151.205475,"dns_name":"sydney","hub_score":0,"serverCount":1}]},{"id":14,"name":"Austria","code":"AT","serverCount":1,"cities":[{"id":448799,"name":"Vienna","latitude":48.2,"longitude":16.366667,"dns_name":"vienna","hub_score":0,"serverCount":1}]},{"id":21,"name":"Belgium","code":"BE","serverCount":1,"cities":[{"id":654293,"name":"Brussels","latitude":50.833333,"longitude":4.333333,"dns_name":"brussels","hub_score":0,"serverCount":1}]},{"id":27,"name":"Bosnia and Herzegovina","code":"BA","serverCount":1,"cities":[{"id":556823,"name":"Sarajevo","latitude":43.85,"longitude":18.3833333,"dns_name":"sarajevo","hub_score":0,"serverCount":1}]},{"id":30,"name":"Brazil","code":"BR","serverCount":1,"cities":[{"id":890249,"name":"Sao Paulo","latitude":-23.533333,"longitude":-46.616667,"dns_name":"sao-paulo","hub_score":0,"serverCount":1}]},{"id":33,"name":"Bulgaria","code":"BG","serverCount":1,"cities":[{"id":777368,"name":"Sofia","latitude":42.6833333,"longitude":23.3166667,"dns_name":"sofia","hub_score":0,"serverCount":1}]},{"id":38,"name":"Canada","code":"CA","serverCount":3,"cities":[{"id":1048463,"name":"Montreal","latitude":45.5,"longitude":-73.583333,"dns_name":"montreal","hub_score":0,"serverCount":1},{"id":1054250,"name":"Toronto","latitude":43.666667,"longitude":-79.416667,"dns_name":"toronto","hub_score":0,"serverCount":1},{"id":1054610,"name":"Vancouver","latitude":49.25,"longitude":-123.133333,"dns_name":"vancouver","hub_score":0,"serverCount":1}]},{"id":43,"name":"Chile","code":"CL","serverCount":1,"cities":[{"id":1227092,"name":"Santiago","latitude":-33.45,"longitude":-70.666667,"dns_name":"santiago","hub_score":0,"serverCount":1}]},{"id":47,"name":"Colombia","code":"CO","serverCount":1,"cities":[{"id":1980695,"name":"Bogota","latitude":4.649178,"longitude":-74.062827,"dns_name":"bogota","hub_score":0,"serverCount":1}]},{"id":52,"name":"Costa Rica","code":"CR","serverCount":1,"cities":[{"id":2062994,"name":"San Jose","latitude":9.893385,"longitude":-84.105407,"dns_name":"san-jose","hub_score":0,"serverCount":1}]},{"id":54,"name":"Croatia","code":"HR","serverCount":1,"cities":[{"id":3308120,"name":"Zagreb","latitude":45.8,"longitude":16,"dns_name":"zagreb","hub_score":0,"serverCount":1}]},{"id":56,"name":"Cyprus","code":"CY","serverCount":1,"cities":[{"id":2099627,"name":"Nicosia","latitude":35.1666667,"longitude":33.3666667,"dns_name":"nicosia","hub_score":0,"serverCount":1}]},{"id":57,"name":"Czech Republic","code":"CZ","serverCount":1,"cities":[{"id":2144945,"name":"Prague","latitude":50.083333,"longitude":14.466667,"dns_name":"prague","hub_score":0,"serverCount":1}]},{"id":58,"name":"Denmark","code":"DK","serverCount":1,"cities":[{"id":2382515,"name":"Copenhagen","latitude":55.666667,"longitude":12.583333,"dns_name":"copenhagen","hub_score":0,"serverCount":1}]},{"id":68,"name":"Estonia","code":"EE","serverCount":1,"cities":[{"id":2514182,"name":"Tallinn","latitude":59.4338889,"longitude":24.7280556,"dns_name":"tallinn","hub_score":0,"serverCount":1}]},{"id":73,"name":"Finland","code":"FI","serverCount":1,"cities":[{"id":2704343,"name":"Helsinki","latitude":60.175556,"longitude":24.934167,"dns_name":"helsinki","hub_score":0,"serverCount":1}]},{"id":74,"name":"France","code":"FR","serverCount":2,"cities":[{"id":2867102,"name":"Marseille","latitude":43.285413,"longitude":5.37606,"dns_name":"marseille","hub_score":0,"serverCount":1},{"id":2886284,"name":"Paris","latitude":48.866667,"longitude":2.333333,"dns_name":"paris","hub_score":0,"serverCount":1}]},{"id":80,"name":"Georgia","code":"GE","serverCount":1,"cities":[{"id":3032063,"name":"Tbilisi","latitude":41.725,"longitude":44.7908333,"dns_name":"tbilisi","hub_score":-5,"serverCount":1}]},{"id":81,"name":"Germany","code":"DE","serverCount":2,"cities":[{"id":2181458,"name":"Berlin","latitude":52.516667,"longitude":13.4,"dns_name":"berlin","hub_score":0,"serverCount":1},{"id":2215709,"name":"Frankfurt","latitude":50.116667,"longitude":8.683333,"dns_name":"frankfurt","hub_score":0,"serverCount":1}]},{"id":84,"name":"Greece","code":"GR","serverCount":1,"cities":[{"id":3131903,"name":"Athens","latitude":37.9833333,"longitude":23.7333333,"dns_name":"athens","hub_score":0,"serverCount":1}]},{"id":97,"name":"Hong Kong","code":"HK","serverCount":1,"cities":[{"id":3232931,"name":"Hong Kong","latitude":22.2833333,"longitude":114.15,"dns_name":"hong-kong","hub_score":0,"serverCount":1}]},{"id":98,"name":"Hungary","code":"HU","serverCount":1,"cities":[{"id":3348344,"name":"Budapest","latitude":47.5,"longitude":19.083333,"dns_name":"budapest","hub_score":0,"serverCount":1}]},{"id":99,"name":"Iceland","code":"IS","serverCount":1,"cities":[{"id":4509791,"name":"Reykjavik","latitude":64.15,"longitude":-21.95,"dns_name":"reykjavik","hub_score":0,"serverCount":1}]},{"id":100,"name":"India","code":"IN","serverCount":0,"cities":[{"id":4041548,"name":"Mumbai","latitude":18.975,"longitude":72.825833,"dns_name":"mumbai","hub_score":0,"serverCount":0}]},{"id":101,"name":"Indonesia","code":"ID","serverCount":1,"cities":[{"id":3560288,"name":"Jakarta","latitude":-6.174444,"longitude":106.829444,"dns_name":"jakarta","hub_score":0,"serverCount":1}]},{"id":104,"name":"Ireland","code":"IE","serverCount":1,"cities":[{"id":3939200,"name":"Dublin","latitude":53.3330556,"longitude":-6.2488889,"dns_name":"dublin","hub_score":0,"serverCount":1}]},{"id":105,"name":"Israel","code":"IL","serverCount":1,"cities":[{"id":3964220,"name":"Tel Aviv","latitude":32.066667,"longitude":34.766667,"dns_name":"tel-aviv","hub_score":0,"serverCount":1}]},{"id":106,"name":"Italy","code":"IT","serverCount":2,"cities":[{"id":4542737,"name":"Milan","latitude":45.466667,"longitude":9.2,"dns_name":"milan","hub_score":0,"serverCount":1},{"id":4555808,"name":"Rome","latitude":41.8902,"longitude":12.4922,"dns_name":"rome","hub_score":0,"serverCount":1}]},{"id":108,"name":"Japan","code":"JP","serverCount":2,"cities":[{"id":4621847,"name":"Osaka","latitude":34.6937,"longitude":135.5023,"dns_name":"osaka","hub_score":0,"serverCount":1},{"id":4633349,"name":"Tokyo","latitude":35.685,"longitude":139.751389,"dns_name":"tokyo","hub_score":0,"serverCount":1}]},{"id":119,"name":"Latvia","code":"LV","serverCount":1,"cities":[{"id":5192828,"name":"Riga","latitude":56.95,"longitude":24.1,"dns_name":"riga","hub_score":0,"serverCount":1}]},{"id":125,"name":"Lithuania","code":"LT","serverCount":1,"cities":[{"id":5166932,"name":"Vilnius","latitude":54.6833333,"longitude":25.3166667,"dns_name":"vilnius","hub_score":0,"serverCount":1}]},{"id":126,"name":"Luxembourg","code":"LU","serverCount":1,"cities":[{"id":9521876,"name":"Luxembourg","latitude":49.6117,"longitude":6.13,"dns_name":"luxembourg","hub_score":0,"serverCount":1}]},{"id":131,"name":"Malaysia","code":"MY","serverCount":1,"cities":[{"id":5820143,"name":"Kuala Lumpur","latitude":3.166667,"longitude":101.7,"dns_name":"kuala-lumpur","hub_score":0,"serverCount":1}]},{"id":140,"name":"Mexico","code":"MX","serverCount":1,"cities":[{"id":5677037,"name":"Mexico","latitude":19.434167,"longitude":-99.138611,"dns_name":"mexico","hub_score":0,"serverCount":1}]},{"id":142,"name":"Moldova","code":"MD","serverCount":1,"cities":[{"id":5295179,"name":"Chisinau","latitude":47.005556,"longitude":28.8575,"dns_name":"chisinau","hub_score":0,"serverCount":1}]},{"id":153,"name":"Netherlands","code":"NL","serverCount":1,"cities":[{"id":6076868,"name":"Amsterdam","latitude":52.35,"longitude":4.916667,"dns_name":"amsterdam","hub_score":0,"serverCount":1}]},{"id":156,"name":"New Zealand","code":"NZ","serverCount":1,"cities":[{"id":6144239,"name":"Auckland","latitude":-36.866667,"longitude":174.766667,"dns_name":"auckland","hub_score":0,"serverCount":1}]},{"id":128,"name":"North Macedonia","code":"MK","serverCount":1,"cities":[{"id":5386019,"name":"Skopje","latitude":42,"longitude":21.4333333,"dns_name":"skopje","hub_score":0,"serverCount":1}]},{"id":163,"name":"Norway","code":"NO","serverCount":1,"cities":[{"id":6127364,"name":"Oslo","latitude":59.916667,"longitude":10.75,"dns_name":"oslo","hub_score":0,"serverCount":1}]},{"id":174,"name":"Poland","code":"PL","serverCount":1,"cities":[{"id":6863429,"name":"Warsaw","latitude":52.25,"longitude":21,"dns_name":"warsaw","hub_score":0,"serverCount":1}]},{"id":175,"name":"Portugal","code":"PT","serverCount":1,"cities":[{"id":6906665,"name":"Lisbon","latitude":38.716667,"longitude":-9.133333,"dns_name":"lisbon","hub_score":0,"serverCount":1}]},{"id":179,"name":"Romania","code":"RO","serverCount":1,"cities":[{"id":6953096,"name":"Bucharest","latitude":44.433333,"longitude":26.1,"dns_name":"bucharest","hub_score":0,"serverCount":1}]},{"id":192,"name":"Serbia","code":"RS","serverCount":1,"cities":[{"id":7030907,"name":"Belgrade","latitude":44.818611,"longitude":20.468056,"dns_name":"belgrad","hub_score":0,"serverCount":1}]},{"id":195,"name":"Singapore","code":"SG","serverCount":1,"cities":[{"id":7867982,"name":"Singapore","latitude":1.2930556,"longitude":103.8558333,"dns_name":"singapore","hub_score":0,"serverCount":1}]},{"id":196,"name":"Slovakia","code":"SK","serverCount":1,"cities":[{"id":7884305,"name":"Bratislava","latitude":48.15,"longitude":17.1166667,"dns_name":"bratislava","hub_score":0,"serverCount":1}]},{"id":197,"name":"Slovenia","code":"SI","serverCount":1,"cities":[{"id":7874306,"name":"Ljubljana","latitude":46.0552778,"longitude":14.5144444,"dns_name":"ljubljana","hub_score":0,"serverCount":1}]},{"id":200,"name":"South Africa","code":"ZA","serverCount":1,"cities":[{"id":9383693,"name":"Johannesburg","latitude":-26.205171,"longitude":28.049815,"dns_name":"johannesburg","hub_score":0,"serverCount":1}]},{"id":114,"name":"South Korea","code":"KR","serverCount":1,"cities":[{"id":4879586,"name":"Seoul","latitude":37.5985,"longitude":126.9783,"dns_name":"seoul","hub_score":0,"serverCount":1}]},{"id":202,"name":"Spain","code":"ES","serverCount":2,"cities":[{"id":2572757,"name":"Barcelona","latitude":41.398371,"longitude":2.1741,"dns_name":"barcelona","hub_score":0,"serverCount":1},{"id":2619989,"name":"Madrid","latitude":40.408566,"longitude":-3.69222,"dns_name":"madrid","hub_score":0,"serverCount":1}]},{"id":208,"name":"Sweden","code":"SE","serverCount":1,"cities":[{"id":7852919,"name":"Stockholm","latitude":59.333333,"longitude":18.05,"dns_name":"stockholm","hub_score":0,"serverCount":1}]},{"id":209,"name":"Switzerland","code":"CH","serverCount":1,"cities":[{"id":1171814,"name":"Zurich","latitude":47.366667,"longitude":8.55,"dns_name":"zurich","hub_score":0,"serverCount":1}]},{"id":211,"name":"Taiwan","code":"TW","serverCount":1,"cities":[{"id":8544365,"name":"Taipei","latitude":25.0391667,"longitude":121.525,"dns_name":"taipei","hub_score":0,"serverCount":1}]},{"id":214,"name":"Thailand","code":"TH","serverCount":1,"cities":[{"id":8121638,"name":"Bangkok","latitude":13.753979,"longitude":100.501444,"dns_name":"bangkok","hub_score":0,"serverCount":1}]},{"id":220,"name":"Turkey","code":"TR","serverCount":1,"cities":[{"id":8401790,"name":"Istanbul","latitude":41.018611,"longitude":28.964722,"dns_name":"istanbul","hub_score":0,"serverCount":1}]},{"id":225,"name":"Ukraine","code":"UA","serverCount":1,"cities":[{"id":8626766,"name":"Kyiv","latitude":50.433333,"longitude":30.516667,"dns_name":"kyiv","hub_score":0,"serverCount":1}]},{"id":226,"name":"United Arab Emirates","code":"AE","serverCount":1,"cities":[{"id":728,"name":"Dubai","latitude":25.258172,"longitude":55.304717,"dns_name":"dubai","hub_score":0,"serverCount":1}]},{"id":227,"name":"United Kingdom","code":"GB","serverCount":4,"cities":[{"id":2975852,"name":"Edinburgh","latitude":55.95,"longitude":-3.2,"dns_name":"edinburgh","hub_score":0,"serverCount":1},{"id":2978888,"name":"Glasgow","latitude":55.833333,"longitude":-4.25,"dns_name":"glasgow","hub_score":0,"serverCount":1},{"id":2989907,"name":"London","latitude":51.514125,"longitude":-0.093689,"dns_name":"london","hub_score":0,"serverCount":1},{"id":2991110,"name":"Manchester","latitude":53.5,"longitude":-2.216667,"dns_name":"manchester","hub_score":0,"serverCount":1}]},{"id":228,"name":"United States","code":"US","serverCount":16,"cities":[{"id":8792429,"name":"Atlanta","latitude":33.7488889,"longitude":-84.3880556,"dns_name":"atlanta","hub_score":0,"serverCount":1},{"id":8963153,"name":"Buffalo","latitude":42.8863889,"longitude":-78.8786111,"dns_name":"buffalo","hub_score":0,"serverCount":1},{"id":8980922,"name":"Charlotte","latitude":35.2269444,"longitude":-80.8433333,"dns_name":"charlotte","hub_score":0,"serverCount":1},{"id":8815352,"name":"Chicago","latitude":41.85,"longitude":-87.65,"dns_name":"chicago","hub_score":0,"serverCount":1},{"id":9080300,"name":"Dallas","latitude":32.7833333,"longitude":-96.8,"dns_name":"dallas","hub_score":0,"serverCount":1},{"id":8770934,"name":"Denver","latitude":39.7391667,"longitude":-104.9841667,"dns_name":"denver","hub_score":0,"serverCount":1},{"id":8930717,"name":"Kansas City","latitude":39.0997222,"longitude":-94.5783333,"dns_name":"kansas-city","hub_score":0,"serverCount":1},{"id":8761958,"name":"Los Angeles","latitude":34.0522222,"longitude":-118.2427778,"dns_name":"los-angeles","hub_score":0,"serverCount":1},{"id":9113744,"name":"Manassas","latitude":38.7508333,"longitude":-77.4755556,"dns_name":"manassas","hub_score":0,"serverCount":1},{"id":8787782,"name":"Miami","latitude":25.7738889,"longitude":-80.1938889,"dns_name":"miami","hub_score":0,"serverCount":1},{"id":8971718,"name":"New York","latitude":40.7141667,"longitude":-74.0063889,"dns_name":"new-york","hub_score":0,"serverCount":1},{"id":8741960,"name":"Phoenix","latitude":33.4483333,"longitude":-112.0733333,"dns_name":"phoenix","hub_score":0,"serverCount":1},{"id":8934551,"name":"Saint Louis","latitude":38.6272222,"longitude":-90.1977778,"dns_name":"saint-louis","hub_score":0,"serverCount":1},{"id":9097865,"name":"Salt Lake City","latitude":40.7608333,"longitude":-111.8902778,"dns_name":"salt-lake-city","hub_score":0,"serverCount":1},{"id":8766359,"name":"San Francisco","latitude":37.7698135,"longitude":-122.4660005,"dns_name":"san-francisco","hub_score":0,"serverCount":1},{"id":9128402,"name":"Seattle","latitude":47.6063889,"longitude":-122.3308333,"dns_name":"seattle","hub_score":0,"serverCount":1}]},{"id":234,"name":"Vietnam","code":"VN","serverCount":1,"cities":[{"id":9270302,"name":"Hanoi","latitude":21.033333,"longitude":105.85,"dns_name":"hanoi","hub_score":0,"serverCount":1}]}]